{
    "version": 0.6,
    "generator": "Overpass API 0.7.61.5 4133829e",
    "osm3s": {
      "timestamp_osm_base": "2023-09-05T10:06:59Z",
      "timestamp_areas_base": "2023-09-05T07:12:05Z",
      "copyright": "The data included in this document is from www.openstreetmap.org. The data is made available under ODbL."
    },
    "elements": [
  
  {
    "type": "node",
    "id": 1118578768,
    "lat": 51.4719515,
    "lon": 7.2002245,
    "tags": {
      "addr:city": "Bochum",
      "addr:country": "DE",
      "addr:housenumber": "8-10",
      "addr:postcode": "44793",
      "addr:street": "Obere Stahlindustrie",
      "amenity": "waste_transfer_station",
      "name": "ECOCityCenter Bochum",
      "operator": "USB Bochum",
      "phone": "+49 234 3336-211",
      "website": "https://www.ekocity.de/ekocitycenter-bochum/"
    }
  },
  {
    "type": "node",
    "id": 3377545015,
    "lat": 51.4300174,
    "lon": 6.7491821,
    "tags": {
      "addr:city": "Duisburg",
      "addr:housenumber": "54",
      "addr:postcode": "47053",
      "addr:street": "Vulkanstraße",
      "amenity": "waste_transfer_station",
      "name": "Possehl Kehrmann GmbH"
    }
  },
  {
    "type": "node",
    "id": 6170718208,
    "lat": 51.2136017,
    "lon": 6.7755295,
    "tags": {
      "amenity": "waste_transfer_station",
      "note": "Lagerhaus für Müll Container, da passt waste_transfer_station noch am Besten"
    }
  },
  {
    "type": "node",
    "id": 8025698770,
    "lat": 51.9275769,
    "lon": 9.1118298,
    "tags": {
      "amenity": "waste_transfer_station",
      "name": "Deponie für Bodenaushub und Bauschutt mit Müllumschlagstelle Hohedömsen",
      "short_name": "Müllumschlagstelle Hohedömsen"
    }
  },
  {
    "type": "node",
    "id": 8841610365,
    "lat": 52.0360809,
    "lon": 8.3508392,
    "tags": {
      "addr:city": "Halle (Westf.)",
      "addr:country": "DE",
      "addr:housenumber": "1",
      "addr:postcode": "33790",
      "addr:street": "Im Hagen",
      "amenity": "waste_transfer_station",
      "name": "PreZero",
      "opening_hours": "Mo-Fr 06:00-16:30",
      "phone": "+49 5201 73550",
      "website": "https://www.prezero.com/halle/"
    }
  },
  {
    "type": "way",
    "id": 23741584,
    "nodes": [
      257128822,
      257128825,
      257128827,
      257128840,
      8846612651,
      8846612666,
      8846612665,
      8846612586,
      257128843,
      8846612587,
      8846612562,
      8846612563,
      257128845,
      8846612588,
      8846612564,
      8846612566,
      257128848,
      8846612541,
      8846612542,
      257128850,
      8846612545,
      8846612544,
      8846612546,
      8846612543,
      257128852,
      8846612560,
      8846612559,
      257128855,
      8846612723,
      257128857,
      257128822
    ],
    "tags": {
      "amenity": "waste_transfer_station",
      "landuse": "industrial",
      "name": "mags Mönchengladbacher Abfall-, Grün- und Straßenbetriebe AöR"
    }
  },
  {
    "type": "way",
    "id": 49845330,
    "nodes": [
      633317916,
      2614873867,
      2614873866,
      2614873862,
      2614873864,
      2614873860,
      2267406277,
      2267406271,
      633317875,
      1429138260,
      1429138259,
      633317890,
      633317916
    ],
    "tags": {
      "amenity": "waste_transfer_station",
      "building": "yes",
      "name": "Müllumladestation"
    }
  },
  {
    "type": "way",
    "id": 145962448,
    "nodes": [
      1592813455,
      1592812898,
      1592809752,
      6264994291,
      1592808773,
      1592808623,
      1592808598,
      1592808484,
      1592812721,
      1592813376,
      1592813541,
      1592814461,
      1592814750,
      1592813617,
      1592813455
    ],
    "tags": {
      "addr:city": "Dortmund",
      "addr:country": "DE",
      "addr:housenumber": "21",
      "addr:postcode": "44147",
      "addr:street": "Heinrich-August-Schulte-Straße",
      "amenity": "waste_transfer_station",
      "description": "Es ist eine Baustoffrecyclinganlage",
      "name": "Dortmunder Gesellschaft für Abfall mbH - DOGA Recyclingzentrum Dortmund",
      "website": "https://www.doga.de/de/unternehmen/standorte-anlagen.htm"
    }
  },
  {
    "type": "way",
    "id": 512587691,
    "nodes": [
      5011922595,
      5011922594,
      5011922593,
      5011922592,
      5011922591,
      5011922590,
      5011922589,
      5011922588,
      5011922595
    ],
    "tags": {
      "addr:city": "Castrop-Rauxel",
      "addr:country": "DE",
      "addr:housenumber": "81",
      "addr:postcode": "44577",
      "addr:street": "Deininghauser Weg",
      "amenity": "waste_transfer_station",
      "building": "yes",
      "name": "VCC Verwertungs-Centrum Castrop GmbH & Co. KG",
      "phone": "+49 2305 9983070",
      "website": "https://www.vcc-castrop.de/"
    }
  },
  {
    "type": "way",
    "id": 533563452,
    "nodes": [
      9732820374,
      5176210205,
      5176210206,
      9732820375,
      9732820376,
      9732820374
    ],
    "tags": {
      "amenity": "waste_transfer_station",
      "barrier": "fence",
      "fence_type": "wall"
    }
  },
  {
    "type": "way",
    "id": 952559975,
    "nodes": [
      8816541076,
      8816541077,
      8816541078,
      8816541079,
      8816541076
    ],
    "tags": {
      "amenity": "waste_transfer_station",
      "note": "Müllsammelstelle für Bewohner der Anlage (eingezäunt).",
      "waste": "household;mixed"
    }
  },
  {
    "type": "way",
    "id": 957151636,
    "nodes": [
      8857042323,
      8857042324,
      8857042325,
      8857042326,
      8857042323
    ],
    "tags": {
      "amenity": "waste_transfer_station"
    }
  },
  {
    "type": "way",
    "id": 958290312,
    "nodes": [
      8866798533,
      8866798534,
      8866798546,
      8866798535,
      8866798536,
      8866798537,
      8866798538,
      8866798539,
      8866798540,
      8866798541,
      8866798542,
      8866798543,
      8866798548,
      8866798549,
      8866798550,
      8866798552,
      1734913904,
      1734913911,
      1734913914,
      1734913902,
      8866766253,
      8866766271,
      8866798544,
      8866798545,
      8866798533
    ],
    "tags": {
      "addr:city": "Krefeld",
      "addr:housenumber": "33",
      "addr:postcode": "47809",
      "addr:street": "Bruchfeld",
      "amenity": "waste_transfer_station",
      "name": "EGN Entsorgungsgesellschaft Niederrhein mbH Krefeld"
    }
  },
  {
    "type": "way",
    "id": 984902207,
    "nodes": [
      9105523096,
      9105523097,
      9105523098,
      9105523099,
      9105523096
    ],
    "tags": {
      "amenity": "waste_transfer_station"
    }
  },
  {
    "type": "way",
    "id": 984902208,
    "nodes": [
      9105523100,
      9105523101,
      9105523102,
      9105523103,
      9105523100
    ],
    "tags": {
      "amenity": "waste_transfer_station"
    }
  },
  {
    "type": "way",
    "id": 1033652248,
    "nodes": [
      9522946953,
      9522946952,
      9522946946,
      9522946945,
      9522946947,
      9522946954,
      3608832052,
      9522946953
    ],
    "tags": {
      "amenity": "waste_transfer_station",
      "barrier": "fence"
    }
  },
  {
    "type": "way",
    "id": 1033654687,
    "nodes": [
      9522990022,
      9522990019,
      9522990018,
      9522990024,
      9522978116,
      9522990023,
      9522990017,
      9522990022
    ],
    "tags": {
      "amenity": "waste_transfer_station",
      "barrier": "fence"
    }
  },
  {
    "type": "way",
    "id": 1036060536,
    "nodes": [
      9545646268,
      9545646269,
      9545646270,
      9545646271,
      9545646268
    ],
    "tags": {
      "amenity": "waste_transfer_station"
    }
  },
  {
    "type": "way",
    "id": 1192496136,
    "nodes": [
      11069956497,
      11069956494,
      11069956496,
      11069956495,
      11069956493,
      11069956497
    ],
    "tags": {
      "amenity": "waste_transfer_station",
      "barrier": "fence"
    }
  },
  {
    "type": "way",
    "id": 1195738037,
    "nodes": [
      11097700059,
      11097700058,
      11097700057,
      11097700056,
      11097700059
    ],
    "tags": {
      "amenity": "waste_transfer_station"
    }
  },
  {
    "type": "way",
    "id": 1195738038,
    "nodes": [
      11097700061,
      9341160538,
      9341160537,
      11097700062,
      11097700061
    ],
    "tags": {
      "amenity": "waste_transfer_station"
    }
  },
  {
    "type": "area",
    "id": 3600062761,
    "tags": {
      "ISO3166-2": "DE-NW",
      "TMC:cid_58:tabcd_1:Class": "Area",
      "TMC:cid_58:tabcd_1:LCLversion": "12.0",
      "TMC:cid_58:tabcd_1:LocationCode": "260",
      "admin_level": "4",
      "admin_title": "federal state",
      "admin_title:de": "Bundesland",
      "alt_name:pt": "Renânia do Norte-Vestefália",
      "boundary": "administrative",
      "de:amtlicher_gemeindeschluessel": "05",
      "de:regionalschluessel": "05",
      "name": "Nordrhein-Westfalen",
      "name:af": "Noordryn-Wesfale",
      "name:an": "Renania d'o Norte-Westfalia",
      "name:ar": "شمال الراين-وستفاليا",
      "name:az": "Şimali Reyn-Vestfaliya",
      "name:be": "Паўночны Рэйн-Вестфалія",
      "name:be-tarask": "Паўночны Райн-Вэстфалія",
      "name:bg": "Северен Рейн-Вестфалия",
      "name:br": "Nordrhein-Westfalen",
      "name:bs": "Sjeverna Rajna-Vestfalija",
      "name:ca": "Rin del Nord - Westfàlia",
      "name:co": "Nordu Renu-Westfalia",
      "name:cs": "Severní Porýní-Vestfálsko",
      "name:cv": "Çурçĕр Рейн-Вестфали",
      "name:de": "Nordrhein-Westfalen",
      "name:dsb": "Pódpołnocna Poryńska-Westfalska",
      "name:el": "Βόρεια Ρηνανία-Βεστφαλία",
      "name:en": "North Rhine-Westphalia",
      "name:eo": "Nordrejn-Vestfalio",
      "name:es": "Renania del Norte-Westfalia",
      "name:eu": "Ipar Renania-Westfalia",
      "name:fa": "نوردراین-وستفالن",
      "name:fr": "Rhénanie-du-Nord-Westphalie",
      "name:frr": "Nordrhin-Weestfåålen",
      "name:fy": "Noardryn-Westfalen",
      "name:ga": "Tuaisceart na Réine agus an Viostfáil",
      "name:gl": "Renania do Norte-Westfalia",
      "name:gv": "Yn Rhine Hwoaie-Westfalen",
      "name:he": "נורדריין-וסטפאליה",
      "name:hr": "Sjeverna Rajna - Vestfalija",
      "name:hsb": "Sewjernorynsko-Westfalska",
      "name:hu": "Észak-Rajna–Vesztfália",
      "name:ia": "Rhenania del Nord - Westfalia",
      "name:ie": "Nordrhein-Vestfalia",
      "name:ilo": "Amiananhayn Lumauwalen",
      "name:io": "Nordrheno-Vestfalia",
      "name:is": "Norðurrín-Vestfalía",
      "name:it": "Renania Settentrionale-Vestfalia",
      "name:ja": "ノルトライン＝ヴェストファーレン州",
      "name:ka": "ჩრდილოეთი რაინ-ვესტფალია",
      "name:ko": "노르트라인베스트팔렌 주",
      "name:ksh": "Noordrhing-Wääßfaale",
      "name:la": "Rhenania Septentrionalis-Vestfalia",
      "name:li": "Noordrien-Wesfale",
      "name:lij": "Renania do Nòrd-Vestfall-ia",
      "name:lmo": "Nord Reno-Westfalia",
      "name:lt": "Šiaurės Reinas-Vestfalija",
      "name:lv": "Ziemeļreina-Vestfālene",
      "name:mk": "Северна Рајна-Вестфалија",
      "name:mr": "नोर्डर्हाइन-वेस्टफालन",
      "name:nah": "Rhein Mictlāmpa-Westfalen",
      "name:nap": "Nord Reno-Westfalia",
      "name:nds": "Noordrhien-Westfalen",
      "name:nds-nl": "Noordrhain-Westfele",
      "name:nl": "Noordrijn-Westfalen",
      "name:oc": "Ren del Nòrd-Vestfàlia",
      "name:os": "Цæгат Рейн-Вестфали",
      "name:pdc": "Nordrhoi-Wessfoale",
      "name:pfl": "Nordrhoi-Weschdfaale",
      "name:pl": "Nadrenia Północna-Westfalia",
      "name:pms": "Nòrd Ren-Westfalia",
      "name:pnb": "اتلا رائین لیندا فالی",
      "name:prefix": "Bundesland",
      "name:pt": "Renânia do Norte-Vestfália",
      "name:rm": "Nord Rain-Vestfalia",
      "name:ro": "Renania de Nord-Westfalia",
      "name:ru": "Северный Рейн-Вестфалия",
      "name:sco": "North Rhine-Westphalie",
      "name:sh": "Sjeverna Rajna-Vestfalija",
      "name:sk": "Severné Porýnie - Westfálsko",
      "name:sl": "Severno Porenje-Vestfalija",
      "name:sr": "Северна Рајна-Вестфалија",
      "name:stq": "Noudrhien-Wäästfoalen",
      "name:sw": "Rhine Kaskazini-Westfalia",
      "name:szl": "Nadrynijŏ Pōłnocnŏ-Westfalijŏ",
      "name:th": "รัฐนอร์ทไรน์-เว็สท์ฟาเลิน",
      "name:tr": "Kuzey Ren-Vestfalya",
      "name:uk": "Північний Рейн — Вестфалія",
      "name:vec": "Nord Reno-Westfalia",
      "name:vo": "Nolüdarinän-Vesfalän",
      "name:zh": "北莱茵-威斯特法伦州",
      "name:zh-Hant": "北萊茵－威斯特法倫",
      "ref": "NRW",
      "ref:nuts": "DEA",
      "ref:nuts:1": "DEA",
      "source": "http://wiki.openstreetmap.org/wiki/Import/Catalogue/Kreisgrenzen_Deutschland_2005",
      "type": "boundary",
      "wikidata": "Q1198",
      "wikipedia": "de:Nordrhein-Westfalen"
    }
  },
  {
    "type": "node",
    "id": 9341160537,
    "lat": 50.7393200,
    "lon": 6.0411682
  },
  {
    "type": "node",
    "id": 9341160538,
    "lat": 50.7392628,
    "lon": 6.0411742
  },
  {
    "type": "node",
    "id": 11097700061,
    "lat": 50.7392598,
    "lon": 6.0410971
  },
  {
    "type": "node",
    "id": 11097700062,
    "lat": 50.7393167,
    "lon": 6.0410938
  },
  {
    "type": "node",
    "id": 3608832052,
    "lat": 50.7403903,
    "lon": 6.0444800
  },
  {
    "type": "node",
    "id": 9522946945,
    "lat": 50.7403288,
    "lon": 6.0444062
  },
  {
    "type": "node",
    "id": 9522946946,
    "lat": 50.7403312,
    "lon": 6.0443928
  },
  {
    "type": "node",
    "id": 9522946947,
    "lat": 50.7403260,
    "lon": 6.0444215
  },
  {
    "type": "node",
    "id": 9522946952,
    "lat": 50.7403364,
    "lon": 6.0443640
  },
  {
    "type": "node",
    "id": 9522946953,
    "lat": 50.7404060,
    "lon": 6.0443962
  },
  {
    "type": "node",
    "id": 9522946954,
    "lat": 50.7403215,
    "lon": 6.0444465
  },
  {
    "type": "node",
    "id": 9522978116,
    "lat": 50.7403903,
    "lon": 6.0433512
  },
  {
    "type": "node",
    "id": 9522990017,
    "lat": 50.7403920,
    "lon": 6.0433244
  },
  {
    "type": "node",
    "id": 9522990018,
    "lat": 50.7404401,
    "lon": 6.0433843
  },
  {
    "type": "node",
    "id": 9522990019,
    "lat": 50.7404450,
    "lon": 6.0433064
  },
  {
    "type": "node",
    "id": 9522990022,
    "lat": 50.7403935,
    "lon": 6.0432983
  },
  {
    "type": "node",
    "id": 9522990023,
    "lat": 50.7403910,
    "lon": 6.0433367
  },
  {
    "type": "node",
    "id": 9522990024,
    "lat": 50.7403885,
    "lon": 6.0433762
  },
  {
    "type": "node",
    "id": 11069956493,
    "lat": 50.7383848,
    "lon": 6.0436573
  },
  {
    "type": "node",
    "id": 11069956494,
    "lat": 50.7383406,
    "lon": 6.0435808
  },
  {
    "type": "node",
    "id": 11069956495,
    "lat": 50.7383756,
    "lon": 6.0436879
  },
  {
    "type": "node",
    "id": 11069956496,
    "lat": 50.7383207,
    "lon": 6.0436472
  },
  {
    "type": "node",
    "id": 11069956497,
    "lat": 50.7383954,
    "lon": 6.0436251
  },
  {
    "type": "node",
    "id": 11097700056,
    "lat": 50.7390440,
    "lon": 6.0426519
  },
  {
    "type": "node",
    "id": 11097700057,
    "lat": 50.7390283,
    "lon": 6.0427184
  },
  {
    "type": "node",
    "id": 11097700058,
    "lat": 50.7389894,
    "lon": 6.0426954
  },
  {
    "type": "node",
    "id": 11097700059,
    "lat": 50.7390051,
    "lon": 6.0426290
  },
  {
    "type": "node",
    "id": 5176210205,
    "lat": 50.7634188,
    "lon": 6.0516729
  },
  {
    "type": "node",
    "id": 5176210206,
    "lat": 50.7633902,
    "lon": 6.0516488
  },
  {
    "type": "node",
    "id": 9732820374,
    "lat": 50.7634045,
    "lon": 6.0517146
  },
  {
    "type": "node",
    "id": 9732820375,
    "lat": 50.7633758,
    "lon": 6.0516891
  },
  {
    "type": "node",
    "id": 9732820376,
    "lat": 50.7633910,
    "lon": 6.0517026
  },
  {
    "type": "node",
    "id": 8857042323,
    "lat": 50.7647326,
    "lon": 6.0785544
  },
  {
    "type": "node",
    "id": 8857042324,
    "lat": 50.7646680,
    "lon": 6.0785179
  },
  {
    "type": "node",
    "id": 8857042325,
    "lat": 50.7646531,
    "lon": 6.0787304
  },
  {
    "type": "node",
    "id": 8857042326,
    "lat": 50.7646851,
    "lon": 6.0787501
  },
  {
    "type": "node",
    "id": 8816541076,
    "lat": 50.7697609,
    "lon": 6.0818514
  },
  {
    "type": "node",
    "id": 8816541077,
    "lat": 50.7697645,
    "lon": 6.0819136
  },
  {
    "type": "node",
    "id": 8816541078,
    "lat": 50.7697518,
    "lon": 6.0819152
  },
  {
    "type": "node",
    "id": 8816541079,
    "lat": 50.7697482,
    "lon": 6.0818531
  },
  {
    "type": "node",
    "id": 9105523096,
    "lat": 50.7744522,
    "lon": 6.1176090
  },
  {
    "type": "node",
    "id": 9105523097,
    "lat": 50.7744424,
    "lon": 6.1176320
  },
  {
    "type": "node",
    "id": 9105523098,
    "lat": 50.7743839,
    "lon": 6.1175695
  },
  {
    "type": "node",
    "id": 9105523099,
    "lat": 50.7743938,
    "lon": 6.1175465
  },
  {
    "type": "node",
    "id": 9105523100,
    "lat": 50.7743637,
    "lon": 6.1175005
  },
  {
    "type": "node",
    "id": 9105523101,
    "lat": 50.7743493,
    "lon": 6.1175299
  },
  {
    "type": "node",
    "id": 9105523102,
    "lat": 50.7742786,
    "lon": 6.1174435
  },
  {
    "type": "node",
    "id": 9105523103,
    "lat": 50.7742930,
    "lon": 6.1174141
  },
  {
    "type": "node",
    "id": 257128822,
    "lat": 51.1907574,
    "lon": 6.3888775
  },
  {
    "type": "node",
    "id": 257128848,
    "lat": 51.1884513,
    "lon": 6.3888826
  },
  {
    "type": "node",
    "id": 257128850,
    "lat": 51.1885495,
    "lon": 6.3886442
  },
  {
    "type": "node",
    "id": 257128852,
    "lat": 51.1890003,
    "lon": 6.3882234
  },
  {
    "type": "node",
    "id": 257128855,
    "lat": 51.1896449,
    "lon": 6.3881635
  },
  {
    "type": "node",
    "id": 257128857,
    "lat": 51.1902269,
    "lon": 6.3884071
  },
  {
    "type": "node",
    "id": 8846612541,
    "lat": 51.1884412,
    "lon": 6.3887779
  },
  {
    "type": "node",
    "id": 8846612542,
    "lat": 51.1884756,
    "lon": 6.3887091
  },
  {
    "type": "node",
    "id": 8846612543,
    "lat": 51.1887644,
    "lon": 6.3882793
  },
  {
    "type": "node",
    "id": 8846612544,
    "lat": 51.1885178,
    "lon": 6.3883222
  },
  {
    "type": "node",
    "id": 8846612545,
    "lat": 51.1884517,
    "lon": 6.3883297
  },
  {
    "type": "node",
    "id": 8846612546,
    "lat": 51.1886984,
    "lon": 6.3882907
  },
  {
    "type": "node",
    "id": 8846612559,
    "lat": 51.1894185,
    "lon": 6.3881600
  },
  {
    "type": "node",
    "id": 8846612560,
    "lat": 51.1892389,
    "lon": 6.3881872
  },
  {
    "type": "node",
    "id": 8846612564,
    "lat": 51.1885861,
    "lon": 6.3895237
  },
  {
    "type": "node",
    "id": 8846612566,
    "lat": 51.1885771,
    "lon": 6.3894808
  },
  {
    "type": "node",
    "id": 8846612723,
    "lat": 51.1900330,
    "lon": 6.3882876
  },
  {
    "type": "node",
    "id": 257128825,
    "lat": 51.1902959,
    "lon": 6.3918934
  },
  {
    "type": "node",
    "id": 257128827,
    "lat": 51.1899212,
    "lon": 6.3915727
  },
  {
    "type": "node",
    "id": 257128840,
    "lat": 51.1897456,
    "lon": 6.3914213
  },
  {
    "type": "node",
    "id": 257128843,
    "lat": 51.1891442,
    "lon": 6.3909317
  },
  {
    "type": "node",
    "id": 257128845,
    "lat": 51.1887567,
    "lon": 6.3901783
  },
  {
    "type": "node",
    "id": 8846612562,
    "lat": 51.1889421,
    "lon": 6.3906147
  },
  {
    "type": "node",
    "id": 8846612563,
    "lat": 51.1888355,
    "lon": 6.3903935
  },
  {
    "type": "node",
    "id": 8846612586,
    "lat": 51.1891624,
    "lon": 6.3909456
  },
  {
    "type": "node",
    "id": 8846612587,
    "lat": 51.1890045,
    "lon": 6.3907127
  },
  {
    "type": "node",
    "id": 8846612588,
    "lat": 51.1886689,
    "lon": 6.3898865
  },
  {
    "type": "node",
    "id": 8846612651,
    "lat": 51.1893436,
    "lon": 6.3911738
  },
  {
    "type": "node",
    "id": 8846612665,
    "lat": 51.1892009,
    "lon": 6.3909941
  },
  {
    "type": "node",
    "id": 8846612666,
    "lat": 51.1892579,
    "lon": 6.3910659
  },
  {
    "type": "node",
    "id": 1734913902,
    "lat": 51.3402276,
    "lon": 6.6290382
  },
  {
    "type": "node",
    "id": 1734913904,
    "lat": 51.3402431,
    "lon": 6.6282699
  },
  {
    "type": "node",
    "id": 1734913911,
    "lat": 51.3403029,
    "lon": 6.6283513
  },
  {
    "type": "node",
    "id": 1734913914,
    "lat": 51.3403139,
    "lon": 6.6284292
  },
  {
    "type": "node",
    "id": 8866766253,
    "lat": 51.3401336,
    "lon": 6.6296299
  },
  {
    "type": "node",
    "id": 8866766271,
    "lat": 51.3399453,
    "lon": 6.6308364
  },
  {
    "type": "node",
    "id": 8866798536,
    "lat": 51.3424735,
    "lon": 6.6298889
  },
  {
    "type": "node",
    "id": 8866798537,
    "lat": 51.3427034,
    "lon": 6.6284019
  },
  {
    "type": "node",
    "id": 8866798538,
    "lat": 51.3413086,
    "lon": 6.6277639
  },
  {
    "type": "node",
    "id": 8866798539,
    "lat": 51.3410020,
    "lon": 6.6277198
  },
  {
    "type": "node",
    "id": 8866798540,
    "lat": 51.3406709,
    "lon": 6.6277590
  },
  {
    "type": "node",
    "id": 8866798541,
    "lat": 51.3404073,
    "lon": 6.6277934
  },
  {
    "type": "node",
    "id": 8866798542,
    "lat": 51.3399260,
    "lon": 6.6278375
  },
  {
    "type": "node",
    "id": 8866798543,
    "lat": 51.3395379,
    "lon": 6.6278863
  },
  {
    "type": "node",
    "id": 8866798544,
    "lat": 51.3407748,
    "lon": 6.6314606
  },
  {
    "type": "node",
    "id": 8866798548,
    "lat": 51.3394186,
    "lon": 6.6279120
  },
  {
    "type": "node",
    "id": 8866798549,
    "lat": 51.3394301,
    "lon": 6.6281104
  },
  {
    "type": "node",
    "id": 8866798550,
    "lat": 51.3394622,
    "lon": 6.6282169
  },
  {
    "type": "node",
    "id": 8866798552,
    "lat": 51.3395448,
    "lon": 6.6282867
  },
  {
    "type": "node",
    "id": 8866798533,
    "lat": 51.3419434,
    "lon": 6.6323438
  },
  {
    "type": "node",
    "id": 8866798534,
    "lat": 51.3419693,
    "lon": 6.6322607
  },
  {
    "type": "node",
    "id": 8866798535,
    "lat": 51.3420389,
    "lon": 6.6323130
  },
  {
    "type": "node",
    "id": 8866798545,
    "lat": 51.3418969,
    "lon": 6.6323496
  },
  {
    "type": "node",
    "id": 8866798546,
    "lat": 51.3420041,
    "lon": 6.6322868
  },
  {
    "type": "node",
    "id": 633317875,
    "lat": 50.7985294,
    "lon": 7.1599366
  },
  {
    "type": "node",
    "id": 633317890,
    "lat": 50.7989960,
    "lon": 7.1602422
  },
  {
    "type": "node",
    "id": 633317916,
    "lat": 50.7989908,
    "lon": 7.1604644
  },
  {
    "type": "node",
    "id": 1429138259,
    "lat": 50.7988453,
    "lon": 7.1602342
  },
  {
    "type": "node",
    "id": 1429138260,
    "lat": 50.7988540,
    "lon": 7.1599591
  },
  {
    "type": "node",
    "id": 2267406271,
    "lat": 50.7985225,
    "lon": 7.1602189
  },
  {
    "type": "node",
    "id": 2267406277,
    "lat": 50.7985772,
    "lon": 7.1602214
  },
  {
    "type": "node",
    "id": 2614873860,
    "lat": 50.7985729,
    "lon": 7.1604800
  },
  {
    "type": "node",
    "id": 2614873862,
    "lat": 50.7985825,
    "lon": 7.1605781
  },
  {
    "type": "node",
    "id": 2614873864,
    "lat": 50.7985843,
    "lon": 7.1604806
  },
  {
    "type": "node",
    "id": 2614873866,
    "lat": 50.7986183,
    "lon": 7.1605798
  },
  {
    "type": "node",
    "id": 2614873867,
    "lat": 50.7986208,
    "lon": 7.1604467
  },
  {
    "type": "node",
    "id": 5011922588,
    "lat": 51.5806619,
    "lon": 7.3340938
  },
  {
    "type": "node",
    "id": 5011922589,
    "lat": 51.5804134,
    "lon": 7.3342270
  },
  {
    "type": "node",
    "id": 5011922590,
    "lat": 51.5804001,
    "lon": 7.3341624
  },
  {
    "type": "node",
    "id": 5011922591,
    "lat": 51.5803999,
    "lon": 7.3341629
  },
  {
    "type": "node",
    "id": 5011922592,
    "lat": 51.5803808,
    "lon": 7.3340703
  },
  {
    "type": "node",
    "id": 5011922593,
    "lat": 51.5805736,
    "lon": 7.3339673
  },
  {
    "type": "node",
    "id": 5011922594,
    "lat": 51.5805649,
    "lon": 7.3339261
  },
  {
    "type": "node",
    "id": 5011922595,
    "lat": 51.5806208,
    "lon": 7.3338962
  },
  {
    "type": "node",
    "id": 1592812721,
    "lat": 51.5267462,
    "lon": 7.4243230
  },
  {
    "type": "node",
    "id": 1592808484,
    "lat": 51.5233197,
    "lon": 7.4260545
  },
  {
    "type": "node",
    "id": 1592808598,
    "lat": 51.5238238,
    "lon": 7.4291183
  },
  {
    "type": "node",
    "id": 1592808623,
    "lat": 51.5238979,
    "lon": 7.4295479
  },
  {
    "type": "node",
    "id": 1592808773,
    "lat": 51.5239611,
    "lon": 7.4298742
  },
  {
    "type": "node",
    "id": 1592809752,
    "lat": 51.5247889,
    "lon": 7.4289938
  },
  {
    "type": "node",
    "id": 1592812898,
    "lat": 51.5269094,
    "lon": 7.4265151
  },
  {
    "type": "node",
    "id": 6264994291,
    "lat": 51.5244428,
    "lon": 7.4293529
  },
  {
    "type": "node",
    "id": 1592813376,
    "lat": 51.5278088,
    "lon": 7.4235701
  },
  {
    "type": "node",
    "id": 1592813541,
    "lat": 51.5285769,
    "lon": 7.4228323
  },
  {
    "type": "node",
    "id": 1592813617,
    "lat": 51.5286139,
    "lon": 7.4248691
  },
  {
    "type": "node",
    "id": 1592814461,
    "lat": 51.5293500,
    "lon": 7.4222085
  },
  {
    "type": "node",
    "id": 1592814750,
    "lat": 51.5297979,
    "lon": 7.4238924
  },
  {
    "type": "node",
    "id": 1592813455,
    "lat": 51.5278546,
    "lon": 7.4256624
  },
  {
    "type": "node",
    "id": 9545646268,
    "lat": 52.0450585,
    "lon": 8.4378711
  },
  {
    "type": "node",
    "id": 9545646269,
    "lat": 52.0449159,
    "lon": 8.4379494
  },
  {
    "type": "node",
    "id": 9545646270,
    "lat": 52.0450397,
    "lon": 8.4383702
  },
  {
    "type": "node",
    "id": 9545646271,
    "lat": 52.0451604,
    "lon": 8.4382817
  }
  
    ]
  }
  